name,geometry,lat,lon
Daman-e-Koh,POINT (73.0570403 33.7383666),33.7383666,73.0570403
Golden Dragon,POINT (73.0577749 33.7263387),33.7263387,73.0577749
"Isloo Grill, Pir Sohawa",POINT (73.1103956 33.7843301),33.7843301,73.1103956
Islamabad Vintage Quisine,POINT (73.0749265 33.7294496),33.7294496,73.0749265
Kitchen Cusine Grill,POINT (73.0617424 33.721965),33.721965,73.0617424
Zefra Restaurant,POINT (73.0621813 33.7217479),33.7217479,73.0621813
Luna Caprese,POINT (73.075362 33.7303805),33.7303805,73.075362
پیزا ہٹ,POINT (73.0587849 33.7221222),33.7221222,73.0587849
Canadian Club,POINT (73.1123473 33.7209943),33.7209943,73.1123473
cafe lazeez,POINT (73.0547032 33.7188394),33.7188394,73.0547032
Nando's,POINT (73.0779994 33.7299525),33.7299525,73.0779994
Mehraaj Hotel,POINT (73.0325471 33.6882811),33.6882811,73.0325471
Shanwari Resturant‎,POINT (73.0428398 33.68505),33.68505,73.0428398
Savour Foods,POINT (73.0634842 33.7132176),33.7132176,73.0634842
Des Pardes,POINT (73.067953 33.744315),33.744315,73.067953
Khokhar Hotel,POINT (73.1558798 33.5698653),33.5698653,73.1558798
Hana Restaurant,POINT (73.073812 33.6668683),33.6668683,73.073812
Habibi Restaurant,POINT (73.0740707 33.666282),33.666282,73.0740707
Spicy Nandoos,POINT (73.162546 33.643523),33.643523,73.162546
Zeeshan Meat & Chicken Shop,POINT (73.0688236 33.7092377),33.7092377,73.0688236
Karachi Biryani & Nihari House,POINT (73.0379505 33.711254),33.711254,73.0379505
Naan Centre and Restaurant,POINT (73.0911371 33.7183104),33.7183104,73.0911371
Papasalis Italian Restaurant,POINT (73.0597695 33.7225554),33.7225554,73.0597695
Atrio Cafe & Grill,POINT (73.057977 33.7221913),33.7221913,73.057977
Cheema and Chatta,POINT (72.9803594 33.6827142),33.6827142,72.9803594
چائنا ٹاؤن,POINT (73.0464423 33.7094263),33.7094263,73.0464423
Khiva,POINT (73.0588019 33.7219919),33.7219919,73.0588019
Kishmish,POINT (73.0593553 33.7213731),33.7213731,73.0593553
Roasters,POINT (73.0552023 33.7193315),33.7193315,73.0552023
Allah Ho Restaurant,POINT (72.9702873 33.6256267),33.6256267,72.9702873
Bismillah Abbasi Restaurant & Naan Centre,POINT (73.0504032 33.6887558),33.6887558,73.0504032
Best Western,POINT (73.1070966 33.6868444),33.6868444,73.1070966
پیزا ہٹ,POINT (73.0751655 33.6672649),33.6672649,73.0751655
Dhaba,POINT (73.0640229 33.6537573),33.6537573,73.0640229
Tandoori Restaurant,POINT (73.0474613 33.6986522),33.6986522,73.0474613
کیفے 1969,POINT (73.0732134 33.6867733),33.6867733,73.0732134
pizzaholic,POINT (73.0681815 33.7440674),33.7440674,73.0681815
Polo Lounge,POINT (73.0681815 33.7442729),33.7442729,73.0681815
Paratha House,POINT (73.0498786 33.699055),33.699055,73.0498786
Shinwari Tikka,POINT (72.9708134 33.6244901),33.6244901,72.9708134
Pakistan Restaurant,POINT (72.9704757 33.6255097),33.6255097,72.9704757
پیزا ہٹ,POINT (73.0490128 33.7076945),33.7076945,73.0490128
Old dhaba,POINT (73.0571436 33.6688258),33.6688258,73.0571436
Markaz Dhaba,POINT (72.9951411 33.6678428),33.6678428,72.9951411
Khyber Shinwari Restaurant,POINT (72.9979714 33.6670121),33.6670121,72.9979714
Zeeshan Restaurant,POINT (72.9974998 33.667754),33.667754,72.9974998
The Naan Cafe,POINT (72.9971665 33.6681921),33.6681921,72.9971665
Naan Shaan,POINT (72.9973515 33.6679502),33.6679502,72.9973515
Silver Grill,POINT (72.9964124 33.6687391),33.6687391,72.9964124
Food Gear,POINT (72.9965027 33.6685138),33.6685138,72.9965027
Amigos Cuisine,POINT (72.9986473 33.6679723),33.6679723,72.9986473
Dera Khyber Restaurant,POINT (72.9984889 33.6681673),33.6681673,72.9984889
New Quetta Shah G Cafe,POINT (72.9983973 33.6682802),33.6682802,72.9983973
New Quetta BOLAN Resturant,POINT (72.9971773 33.6684537),33.6684537,72.9971773
CRISPY BROAST,POINT (72.9970602 33.6686848),33.6686848,72.9970602
PIZZA COTTAGE,POINT (72.99783 33.668784),33.668784,72.99783
Karachi Nights Restaurant,POINT (72.9980773 33.6689207),33.6689207,72.9980773
Maizban Tandoori Kababish Restaurant,POINT (72.9979118 33.6691183),33.6691183,72.9979118
Ali Baba Restaurant,POINT (72.9990054 33.6696362),33.6696362,72.9990054
The Paratha Co.,POINT (72.9994671 33.6702242),33.6702242,72.9994671
Domino's Pizza G-11,POINT (72.9992924 33.6700563),33.6700563,72.9992924
Bread n Cakes,POINT (72.9993861 33.6699329),33.6699329,72.9993861
Rewayat Restaurant,POINT (72.9997512 33.6699146),33.6699146,72.9997512
Zaiqa Restaurant,POINT (72.98994 33.6649946),33.6649946,72.98994
Awami Hotel & Restaurant,POINT (72.9914468 33.6629875),33.6629875,72.9914468
پزیلا پیزا,POINT (72.993303 33.6604263),33.6604263,72.993303
سوپر گرل ریستوراں,POINT (72.9942208 33.6594749),33.6594749,72.9942208
Makkah Al-Shahbaz Restaurant,POINT (72.9875616 33.668161),33.668161,72.9875616
Syrian Baklava,POINT (72.9947831 33.675808),33.675808,72.9947831
Neemroz: Afghan Balous Cuisine,POINT (72.9928415 33.6845359),33.6845359,72.9928415
Naan Warka,POINT (72.9806022 33.6824086),33.6824086,72.9806022
Abbasi Hotel & Restaurant,POINT (72.9818844 33.6756264),33.6756264,72.9818844
Al-Madina Restaurant,POINT (72.9835282 33.6734139),33.6734139,72.9835282
Pak Afghan,POINT (73.0421052 33.6846343),33.6846343,73.0421052
Alam Chapli Kabab & Peshawari BBQ,POINT (73.0431493 33.6852159),33.6852159,73.0431493
"Baba Balochi Saji, Kabli Palao & Fish Corner",POINT (73.043321 33.6852988),33.6852988,73.043321
New Shinwari,POINT (73.0433696 33.6852174),33.6852174,73.0433696
Baba G Murgh Pulao,POINT (73.0433645 33.6853278),33.6853278,73.0433645
Khyber Afghan Restaurant,POINT (73.0437697 33.6855393),33.6855393,73.0437697
Afghani Kabab House,POINT (73.0351274 33.6808979),33.6808979,73.0351274
3 BBB Restaurant BBQ,POINT (73.0313104 33.6788749),33.6788749,73.0313104
Chilman,POINT (73.0352414 33.6871431),33.6871431,73.0352414
Darbar,POINT (73.0338617 33.6882881),33.6882881,73.0338617
Al Usman Restaurant,POINT (73.0317197 33.6899531),33.6899531,73.0317197
Hubba Bubba Eat & Chill,POINT (73.0323284 33.6899851),33.6899851,73.0323284
Anarkali,POINT (73.0327431 33.6901137),33.6901137,73.0327431
تندوری,POINT (73.0061577 33.6867378),33.6867378,73.0061577
Serai Bistro,POINT (73.122402 33.7318576),33.7318576,73.122402
Nirvana Lounge,POINT (73.0881298 33.7223405),33.7223405,73.0881298
Umania Restaurant,POINT (73.171204 33.7353075),33.7353075,73.171204
Mr. Cod,POINT (73.0877828 33.7260913),33.7260913,73.0877828
Fijji's Grill,POINT (73.0866252 33.7254731),33.7254731,73.0866252
BBQ Tonight,POINT (73.0866065 33.7252265),33.7252265,73.0866065
Shenwari Foods,POINT (73.084277 33.7238252),33.7238252,73.084277
Hamza Food,POINT (73.0833041 33.7237682),33.7237682,73.0833041
Abbasi Restaurant,POINT (73.0827422 33.7231617),33.7231617,73.0827422
Usmania Restaurant,POINT (73.0779117 33.7209365),33.7209365,73.0779117
Ramna Restaurant,POINT (73.076643 33.7202601),33.7202601,73.076643
Shah Restaurant,POINT (73.0773636 33.7203566),33.7203566,73.0773636
Chef Mehbobs Kitchen,POINT (73.076503 33.7201748),33.7201748,73.076503
Raza Restaurant,POINT (73.076701 33.7200527),33.7200527,73.076701
Salt n Pepper,POINT (73.0754343 33.7193565),33.7193565,73.0754343
Omar Khayyam Restaurant,POINT (73.0738577 33.7187113),33.7187113,73.0738577
Go Organic,POINT (73.0737336 33.7198012),33.7198012,73.0737336
Halwa Puri,POINT (73.0843474 33.7172481),33.7172481,73.0843474
Royal Afghan,POINT (73.0855873 33.717815),33.717815,73.0855873
Phajja Siri Paye,POINT (73.0849384 33.7176107),33.7176107,73.0849384
Taste & Taste,POINT (73.0846689 33.7169045),33.7169045,73.0846689
New Raja Restaurant,POINT (73.0849712 33.7167883),33.7167883,73.0849712
Avari Tower Isl,POINT (73.0860537 33.716133),33.716133,73.0860537
منچیز,POINT (72.9728583 33.6996334),33.6996334,72.9728583
پیزا ہٹ,POINT (72.986489 33.6840968),33.6840968,72.986489
TGI Friday's,POINT (73.0502264 33.7079219),33.7079219,73.0502264
Pappa Roti,POINT (73.0494673 33.7075493),33.7075493,73.0494673
China Town,POINT (73.0492337 33.7077879),33.7077879,73.0492337
Lavender,POINT (73.090843 33.7181613),33.7181613,73.090843
Ravi Restaurant,POINT (73.0893162 33.7083527),33.7083527,73.0893162
Irum Hotel,POINT (73.0890661 33.7082225),33.7082225,73.0890661
Ramna Restaurant,POINT (73.0888889 33.7081294),33.7081294,73.0888889
Arsalan Foods & Refreshment,POINT (73.0885292 33.7079253),33.7079253,73.0885292
Allah Badshah Lahori Bhasha Food,POINT (73.0884451 33.7078835),33.7078835,73.0884451
Milko Foods,POINT (73.0888669 33.7074853),33.7074853,73.0888669
New Ghausia,POINT (73.0886597 33.7073826),33.7073826,73.0886597
Mallik's,POINT (73.0879302 33.7076169),33.7076169,73.0879302
Munchies,POINT (73.0768512 33.7302041),33.7302041,73.0768512
Istanbul Restaurant,POINT (73.0766835 33.7301281),33.7301281,73.0766835
Naan Dhaaba,POINT (73.0756767 33.729404),33.729404,73.0756767
Casa Rouge,POINT (73.0750807 33.7295399),33.7295399,73.0750807
MeatEX,POINT (73.0735672 33.7273962),33.7273962,73.0735672
Pizza Party,POINT (73.0721657 33.7271383),33.7271383,73.0721657
川粤府,POINT (73.0713584 33.728528),33.728528,73.0713584
نشاۃ ثانیہ,POINT (72.9922833 33.6890285),33.6890285,72.9922833
KHAN RESTAURANT,POINT (72.9910535 33.6836422),33.6836422,72.9910535
Jayson Group,POINT (72.98663 33.6733844),33.6733844,72.98663
Mashallah Ravi,POINT (73.0162908 33.670912),33.670912,73.0162908
Norani Restaurant,POINT (73.0166449 33.6711051),33.6711051,73.0166449
Usman Restaurant,POINT (73.0167937 33.6711184),33.6711184,73.0167937
Rehmania Restaurant,POINT (73.0177205 33.6716832),33.6716832,73.0177205
Fancy Catering And Party Dacotors,POINT (73.0149653 33.674948),33.674948,73.0149653
Khan Shinwari,POINT (73.0153325 33.675229),33.675229,73.0153325
Chunga Restaurant,POINT (73.0173311 33.6771834),33.6771834,73.0173311
Burn Chilli,POINT (73.0172399 33.6771527),33.6771527,73.0172399
Al-Rehman Restaurant,POINT (72.9993502 33.6949647),33.6949647,72.9993502
Italian Oven,POINT (73.0136137 33.6955502),33.6955502,73.0136137
Toosoo Restaurant,POINT (73.013656 33.6954855),33.6954855,73.013656
Orient Restaurant,POINT (73.0134683 33.6943654),33.6943654,73.0134683
کینٹکی فرائیڈ چکن,POINT (73.0132048 33.6942271),33.6942271,73.0132048
Sufi Restaurant,POINT (73.0151834 33.693319),33.693319,73.0151834
Peshawar Shinwari,POINT (73.0149678 33.6932216),33.6932216,73.0149678
孙芸旅馆 Restaurant,POINT (73.0112525 33.6862838),33.6862838,73.0112525
چینی محبت,POINT (73.0339955 33.713897),33.713897,73.0339955
Lavista Cheese,POINT (73.0338979 33.7135192),33.7135192,73.0338979
Huaxiaqing Restaurant,POINT (73.0342055 33.7140229),33.7140229,73.0342055
خصوصی گرم برتن,POINT (73.0364167 33.7155204),33.7155204,73.0364167
Chinese Restaurant,POINT (73.0378757 33.717214),33.717214,73.0378757
Daily Meal,POINT (73.0431634 33.7192009),33.7192009,73.0431634
چوانکسنگ ہوٹل,POINT (73.0486339 33.7135207),33.7135207,73.0486339
Abbasi Restaurant & Naan Shop,POINT (73.0423338 33.7166856),33.7166856,73.0423338
نیو اورینٹل سنکیانگ ہوٹل,POINT (73.0450624 33.7131327),33.7131327,73.0450624
Chinese Restaurant,POINT (73.0422228 33.7054345),33.7054345,73.0422228
Haleem Ghar,POINT (73.0388392 33.7119851),33.7119851,73.0388392
Lahori Tikka & Take Away,POINT (73.0384334 33.7106399),33.7106399,73.0384334
Lodhi Restaurant,POINT (73.0410308 33.7109253),33.7109253,73.0410308
Mister Naan & Restaurant,POINT (73.0460692 33.7091354),33.7091354,73.0460692
Mashallah Restaurant,POINT (73.0460494 33.7088643),33.7088643,73.0460494
Texas Steak House,POINT (73.0476565 33.7275103),33.7275103,73.0476565
Char Grill Central - CGC,POINT (73.0576451 33.7264413),33.7264413,73.0576451
Mr Chips,POINT (73.0537104 33.7195471),33.7195471,73.0537104
MJ's Bakery & Coffee House,POINT (73.0553382 33.7194022),33.7194022,73.0553382
Kabul Restaurant,POINT (73.0561589 33.7211618),33.7211618,73.0561589
Captain Cook's,POINT (73.0573952 33.7217562),33.7217562,73.0573952
PlanC,POINT (73.058805 33.7218302),33.7218302,73.058805
Tiramisu Restaurant,POINT (73.0592852 33.7214809),33.7214809,73.0592852
Yummy - 36 Restaurant,POINT (73.0596366 33.7229255),33.7229255,73.0596366
چینی ہوٹل,POINT (73.0551622 33.7116171),33.7116171,73.0551622
Urumqi Muslim Restaurant,POINT (73.0568212 33.7164252),33.7164252,73.0568212
Lahore Restaurant,POINT (73.0201208 33.7149284),33.7149284,73.0201208
The Lounge,POINT (73.0111877 33.7170618),33.7170618,73.0111877
Dragon City Chinese,POINT (73.0585112 33.7106538),33.7106538,73.0585112
Domino's Pizza,POINT (73.0593078 33.7110768),33.7110768,73.0593078
Wang Fu,POINT (73.0594997 33.7109178),33.7109178,73.0594997
Jahangir Restaurant,POINT (73.0610957 33.7121005),33.7121005,73.0610957
Red Onion,POINT (73.061267 33.7121982),33.7121982,73.061267
Karachi Restaurant,POINT (73.0623767 33.712023),33.712023,73.0623767
Italian Pizza,POINT (73.0685093 33.7153099),33.7153099,73.0685093
Hotel Blue Sky,POINT (73.0676033 33.7066071),33.7066071,73.0676033
Oshal Restaurant,POINT (73.0688853 33.7068844),33.7068844,73.0688853
Taste and Take,POINT (73.0678723 33.704967),33.704967,73.0678723
Madina Restaurant,POINT (73.0676948 33.7052156),33.7052156,73.0676948
Food Street,POINT (73.069478 33.705164),33.705164,73.069478
Hungers Hut,POINT (73.0734845 33.7054761),33.7054761,73.0734845
Hotel Al-Umar & Restaurant,POINT (73.072011 33.7034937),33.7034937,73.072011
Lassi Dhaba,POINT (73.07178 33.703386),33.703386,73.07178
عباسی ریستوراں,POINT (73.0710786 33.6991011),33.6991011,73.0710786
Murshid Ji Restaurant,POINT (73.0695135 33.6982509),33.6982509,73.0695135
New Bukhara Restaurant,POINT (73.0492768 33.6967306),33.6967306,73.0492768
Abbasi Restaurant,POINT (73.0497192 33.6972047),33.6972047,73.0497192
Lavish Dine,POINT (73.0481392 33.6989125),33.6989125,73.0481392
Kabuli Restaurant,POINT (73.0480365 33.6988713),33.6988713,73.0480365
Shah G Foods,POINT (73.0495761 33.6993365),33.6993365,73.0495761
Raja Resturant,POINT (73.0541399 33.6896327),33.6896327,73.0541399
Ali Restaurant,POINT (73.0576695 33.692562),33.692562,73.0576695
Kandahar restaurant,POINT (73.073303 33.6674075),33.6674075,73.073303
Haleem Ghar,POINT (73.0575666 33.7101662),33.7101662,73.0575666
al ghazal restaurant,POINT (73.0371591 33.6468411),33.6468411,73.0371591
Royal Elephant Thai Restaurant,POINT (73.0868684 33.73241),33.73241,73.0868684
New Al Madina Shenwari Tikka & BBQ Jhangi Syedan,POINT (72.9513135 33.6236974),33.6236974,72.9513135
Tanoor,POINT (73.1710833 33.5348796),33.5348796,73.1710833
Pizza Shop & Fried Chicken,POINT (73.0526834 33.7123089),33.7123089,73.0526834
Ali Hotel and Restaurant,POINT (73.1968426 33.4816074),33.4816074,73.1968426
Epic Fish and Shinwari,POINT (72.9784558 33.645394),33.645394,72.9784558
Chattha's,POINT (72.9996804 33.6908182),33.6908182,72.9996804
Royal Biryani House,POINT (72.9715403 33.6508812),33.6508812,72.9715403
Hot N Spicy,POINT (72.9711417 33.6502398),33.6502398,72.9711417
Awami Resturant,POINT (72.9708979 33.6504572),33.6504572,72.9708979
4 Season Foods,POINT (72.9708299 33.6500266),33.6500266,72.9708299
Naan Village,POINT (72.9640507 33.6452551),33.6452551,72.9640507
Biryani Center,POINT (72.964018 33.6453578),33.6453578,72.964018
Masala Rasoi Resturant,POINT (72.963704 33.6450705),33.6450705,72.963704
Bismillah Naan Center,POINT (72.9635471 33.6451517),33.6451517,72.9635471
Lala Ayub Khokha,POINT (73.0080422 33.6678868),33.6678868,73.0080422
Haseeb Hotel,POINT (73.00701 33.6683407),33.6683407,73.00701
Dastarkhawan Fesabil Allah,POINT (73.0003394 33.678356),33.678356,73.0003394
Karachi Eman Biryani,POINT (72.9999623 33.6689128),33.6689128,72.9999623
Silver Bistro,POINT (72.9967649 33.6682465),33.6682465,72.9967649
Mansoor Restaurant,POINT (72.9988429 33.6700612),33.6700612,72.9988429
Bannu Gull,POINT (72.9972464 33.6680461),33.6680461,72.9972464
Bismillah Shinwari Restaurant & BBQ,POINT (72.9979106 33.6671348),33.6671348,72.9979106
Hot n Spicy Chinese Cuisine,POINT (72.9977943 33.6689635),33.6689635,72.9977943
Zeeshan,POINT (72.9974215 33.667498),33.667498,72.9974215
Eat n Shake,POINT (72.9980387 33.6679811),33.6679811,72.9980387
Hakka Bakka Chinese Takeaway,POINT (73.0150979 33.6738514),33.6738514,73.0150979
Rang Mahal,POINT (73.017076 33.6765444),33.6765444,73.017076
Shah Ji,POINT (73.0160172 33.6756531),33.6756531,73.0160172
Capital Delights,POINT (73.0112652 33.6692891),33.6692891,73.0112652
Zaika Des Des Ka,POINT (73.0123233 33.6699164),33.6699164,73.0123233
Al-Inaab Lebenese Kitchen,POINT (73.0140455 33.675314),33.675314,73.0140455
Chinese Restaurant,POINT (73.0100219 33.6815494),33.6815494,73.0100219
Foody Moody,POINT (73.0323677 33.687253),33.687253,73.0323677
Abdul Shakoor Afghani Burger,POINT (73.0383822 33.6926222),33.6926222,73.0383822
Okara Dairy,POINT (73.0429663 33.6862891),33.6862891,73.0429663
Original Afghani Burger,POINT (73.0427001 33.6862931),33.6862931,73.0427001
Delight Afghani Burger,POINT (73.0424938 33.6863858),33.6863858,73.0424938
Lahore,POINT (73.0442858 33.685858),33.685858,73.0442858
Khyber Shinwari,POINT (73.043996 33.6852419),33.6852419,73.043996
Sufi,POINT (73.0448128 33.6856972),33.6856972,73.0448128
Karachi Student Biryani,POINT (73.04252 33.6849182),33.6849182,73.04252
Bhallu Burger,POINT (73.0454083 33.6859752),33.6859752,73.0454083
Purana Khyber Shinwari Restaurant,POINT (73.0419916 33.684737),33.684737,73.0419916
Shani Chips,POINT (73.0297317 33.6922174),33.6922174,73.0297317
Careem Dhaba,POINT (73.023841 33.6900081),33.6900081,73.023841
Rab Nawaz Khoka,POINT (73.013204 33.682039),33.682039,73.013204
Shinwari,POINT (73.0144669 33.6701546),33.6701546,73.0144669
Karachi Naseeb Biryani Catering Centre,POINT (73.0168759 33.6710264),33.6710264,73.0168759
Zahid’s Barbecue Fish & Chicken,POINT (73.0139459 33.6753692),33.6753692,73.0139459
Darraywal Afridi,POINT (73.015383 33.675137),33.675137,73.015383
New Madina,POINT (73.0147558 33.675732),33.675732,73.0147558
Nasir’s Dhabba,POINT (72.9997077 33.6770264),33.6770264,72.9997077
Dera Khyber,POINT (72.9991606 33.6684058),33.6684058,72.9991606
Amigos Cuisine,POINT (72.9995464 33.668427),33.668427,72.9995464
Foodball,POINT (72.9879082 33.6833895),33.6833895,72.9879082
Sliders,POINT (73.0154946 33.6932767),33.6932767,73.0154946
Burgers etc.,POINT (73.0572707 33.7205459),33.7205459,73.0572707
Chinese Resturent,POINT (73.0312273 33.6533077),33.6533077,73.0312273
Ha Pi Restaurant,POINT (72.9865641 33.6839944),33.6839944,72.9865641
Shinwari Hotel,POINT (72.939194 33.6297413),33.6297413,72.939194
Asian Pulao,POINT (73.154559 33.5991),33.5991,73.154559
Gulshan Roll In And Fried Chicken,POINT (73.0760074 33.6689582),33.6689582,73.0760074
"China Town, Jade Cafe",POINT (73.0754426 33.6684365),33.6684365,73.0754426
Healthy Refreshment Center,POINT (73.0759547 33.6687346),33.6687346,73.0759547
OPTP i-8,POINT (73.0754593 33.6684921),33.6684921,73.0754593
The Pizza Guys,POINT (73.0763698 33.7296326),33.7296326,73.0763698
Chiki Panda,POINT (73.1457992 33.5716143),33.5716143,73.1457992
Ark Builders,POINT (73.0516439 33.6965389),33.6965389,73.0516439
Butt Kerhai  Tikka F-8 Markaz,POINT (73.0393894 33.7108709),33.7108709,73.0393894
Five Diner,POINT (73.0593075 33.7229203),33.7229203,73.0593075
wild wings,POINT (73.1663261 33.5299923),33.5299923,73.1663261
Pizza Hut,POINT (73.1657199 33.5296972),33.5296972,73.1657199
Costa Rica,POINT (73.1658755 33.530122),33.530122,73.1658755
Fredrigo's Pizza,POINT (73.0589141 33.7211881),33.7211881,73.0589141
Al-Madina Restaurant,POINT (72.9699514 33.6243846),33.6243846,72.9699514
MashAllah Restaurant,POINT (72.9705693 33.6231959),33.6231959,72.9705693
Colorado Kitchen,POINT (72.9737272 33.7001939),33.7001939,72.9737272
Pappasallis Pizza,POINT (72.9676382 33.6479618),33.6479618,72.9676382
Monal restaurant,POINT (73.0657831 33.76013),33.76013,73.0657831
Tahir Khan Restoran (TKR),POINT (73.0758928 33.6952113),33.6952113,73.0758928
Tuscany Courtyard,POINT (73.078235 33.7355212),33.7355212,73.078235
Chop Chop Wok,POINT (73.079258 33.7306203),33.7306203,73.079258
Planc,POINT (73.0588734 33.72178),33.72178,73.0588734
Kim Mug,POINT (73.0587079 33.7212312),33.7212312,73.0587079
CCC Club Grill Central,POINT (73.0579042 33.7261224),33.7261224,73.0579042
Quetta Restaurant,POINT (73.1599894 33.6261791),33.6261791,73.1599894
Khayber Naan Center,POINT (73.1599343 33.6261804),33.6261804,73.1599343
Quetta SK Hotel,POINT (73.1172644 33.6294502),33.6294502,73.1172644
Al Jawad International Hotel & Restaurant,POINT (73.1173684 33.6294727),33.6294727,73.1173684
Baoo jee Murgh Pulao,POINT (73.1175387 33.629499),33.629499,73.1175387
Zia Balti & BBQ,POINT (73.0648387 33.6990715),33.6990715,73.0648387
Haleem Ghar,POINT (73.0577235 33.7102435),33.7102435,73.0577235
The Smokey Cauldron,POINT (73.0770447 33.7296699),33.7296699,73.0770447
Restaurant bbq 30 rupee 2023,POINT (72.9411161 33.630145),33.630145,72.9411161
Smokey cheese,POINT (73.0587904 33.7234527),33.7234527,73.0587904
"TKR Restaurant, Taramri",POINT (73.1576357 33.6416835),33.6416835,73.1576357
Baoo Jee Murgh Pulao & Restaurant Tarlai,POINT (73.1543144 33.6391176),33.6391176,73.1543144
Afghan Tikka & Plau House,POINT (73.0556256 33.6563341),33.6563341,73.0556256
LIT,POINT (73.1660938 33.5295998),33.5295998,73.1660938
Quetta Ketli,POINT (73.1574368 33.5309196),33.5309196,73.1574368
Terrace BBQ,POINT (73.1649482 33.5329201),33.5329201,73.1649482
Khoka Khola,POINT (73.1596027 33.5311259),33.5311259,73.1596027
Nazir Foods,POINT (73.0438551 33.6853683),33.6853683,73.0438551
Khabbay Ki Saji,POINT (73.0767044 33.6687307),33.6687307,73.0767044
Hey! Pita,POINT (73.0769074 33.6687619),33.6687619,73.0769074
Cafe Grill,POINT (73.0765483 33.6688395),33.6688395,73.0765483
Cheezious,POINT (73.1292383 33.5655266),33.5655266,73.1292383
Embassy Lodge Hotel and Marquee,POINT (73.1540576 33.664124),33.664124,73.1540576
Aanch Restaurant,POINT (73.076954 33.7300793),33.7300793,73.076954
Quetta Tea & Tea,POINT (73.0127172 33.6947303),33.6947303,73.0127172
Punjab Milk Shop,POINT (72.9991914 33.6913354),33.6913354,72.9991914
Punjab Milk Shop,POINT (72.9987549 33.6905803),33.6905803,72.9987549
Noorani Restaurant,POINT (73.0382394 33.7110292),33.7110292,73.0382394
Butt Karahi Tikka,POINT (73.0749976 33.6694073),33.6694073,73.0749976
Cheezious I-8,POINT (73.0750649 33.6685775),33.6685775,73.0750649
Rendezvous Xpress I8,POINT (73.0747194 33.6674117),33.6674117,73.0747194
foodo,POINT (73.0005911 33.668785),33.668785,73.0005911
Jacaranda Family Club,"POLYGON ((73.1632992 33.5345196, 73.1633585 33.5345177, 73.1636386 33.534509, 73.163613 33.5339369, 73.1632736 33.5339475, 73.1632992 33.5345196))",33.53422823797703,73.16345610100475
Food Street,"POLYGON ((73.0852943 33.7177746, 73.0845414 33.7173732, 73.0847256 33.7171436, 73.0847412 33.717102, 73.0854307 33.7175457, 73.0852943 33.7177746))",33.71744349915011,73.08499031869066
The French Club 21,"POLYGON ((73.1149037 33.7231713, 73.115731 33.7236058, 73.1159973 33.7232575, 73.1151679 33.7228247, 73.1149037 33.7231713))",33.723215012986486,73.11545038764908
Cordon Rouge,"POLYGON ((73.1215956 33.7263034, 73.1216577 33.7262116, 73.1218708 33.7263112, 73.1218088 33.726403, 73.1215956 33.7263034))",33.72630729951681,73.12173321628521
Restaurant 360,"POLYGON ((73.1551419 33.6560174, 73.1554209 33.6560129, 73.1554155 33.6556557, 73.1551366 33.6556646, 73.1551397 33.6558701, 73.1551419 33.6560174))",33.655837646351706,73.15527901641637
Tikka Mehal,"POLYGON ((73.1869996 33.5454964, 73.1870581 33.545521, 73.187097 33.5454461, 73.1869614 33.5453946, 73.1869208 33.5454589, 73.1869996 33.5454964))",33.545456348020075,73.18701028910971
La Montana Restaurant,"POLYGON ((73.0663994 33.7603786, 73.066413 33.7603169, 73.0668464 33.7604122, 73.066781 33.7605841, 73.0663746 33.7604925, 73.0663878 33.7604563, 73.0663602 33.7604524, 73.0663845 33.760377, 73.0663994 33.7603786))",33.760449988639216,73.06660055672957
New Stylish Restaurant,"POLYGON ((73.0537628 33.6557524, 73.0538508 33.6557986, 73.0539417 33.6557267, 73.05399 33.6556196, 73.0540275 33.6555839, 73.0539095 33.6555437, 73.0538559 33.6555928, 73.0537754 33.6557089, 73.0537628 33.6557524))",33.655669400365746,73.05388686443693
Java Hotel,"POLYGON ((73.0553847 33.6565037, 73.0555564 33.6565841, 73.0555779 33.6564412, 73.0554652 33.656401, 73.0553847 33.6565037))",33.65648765986861,73.05549537200082
Haleem Ghar,"POLYGON ((73.0662791 33.6614947, 73.066495 33.6616171, 73.0664085 33.6617227, 73.0661926 33.6616003, 73.0662791 33.6614947))",33.6616087,73.0663438
New Stylish Restaurant,"POLYGON ((73.0666406 33.6610262, 73.0667402 33.6610784, 73.0666768 33.6611563, 73.0665588 33.6610983, 73.0666406 33.6610262))",33.661090581155996,73.06665291850766
Nandara,"POLYGON ((72.985882 33.6990115, 72.9860283 33.6988245, 72.9865822 33.6991244, 72.986436 33.6993114, 72.985882 33.6990115))",33.69906794689322,72.98623211406523
Des Pardes,"POLYGON ((72.9793024 33.7037042, 72.9791683 33.7036299, 72.9789366 33.7039342, 72.9790846 33.7040108, 72.9793024 33.7037042))",33.703821718264585,72.97912134753108
Peng Wings,"POLYGON ((72.9731081 33.7003264, 72.9732444 33.7003933, 72.9731746 33.7004918, 72.9730383 33.700425, 72.9731081 33.7003264))",33.70040911763731,72.97314134368932
Des Pardes,"POLYGON ((73.06779 33.7444252, 73.0679039 33.7443842, 73.0678862 33.7443502, 73.0679174 33.7443389, 73.0678451 33.7442004, 73.067873 33.7441904, 73.0678626 33.7441705, 73.0678818 33.7441636, 73.0678563 33.7441148, 73.0676642 33.7441841, 73.06779 33.7444252))",33.74426654078481,73.06780013989999
Cafe Macaw,"POLYGON ((73.2098997 33.686659, 73.2101522 33.6867874, 73.2102645 33.6866084, 73.2099745 33.6865073, 73.2098716 33.6865073, 73.2098997 33.686659))",33.68663132126848,73.21005796151336
New Mess Hall,"POLYGON ((73.1740709 33.5211898, 73.1740692 33.5211382, 73.1740674 33.5210423, 73.1740831 33.5210389, 73.174078 33.5209813, 73.1742518 33.5209669, 73.1742497 33.5209135, 73.1743087 33.5209118, 73.1743087 33.5209304, 73.1743963 33.5209259, 73.1743989 33.5209749, 73.1745672 33.5209685, 73.1745867 33.5209758, 73.1746055 33.5211608, 73.1740709 33.5211898))",33.52106689407176,73.17432857582666
Quaidian Hut,"POLYGON ((73.1327865 33.7444773, 73.1331432 33.7444974, 73.1332049 33.744358, 73.1333658 33.7442922, 73.1333967 33.7441874, 73.1333618 33.7441294, 73.133111 33.7441171, 73.1329527 33.7440369, 73.1328052 33.7440335, 73.1326443 33.744203, 73.1326604 33.7443112, 73.132651 33.7444071, 73.1326711 33.7444874, 73.1327865 33.7444773))",33.74427164577051,73.13297632790395
